ID,Station Name,Latitude(degN),Longitude(degE)
1,Active Pass,48.873,-123.29
2,Amphitrite Point,48.922,-125.538
3,Bonilla Island,53.493,-130.635
4,Chrome Island,49.472,-124.682
5,Departure Bay,49.21,-123.955
6,Egg Island,51.25,-127.833
7,Entrance Island,49.21,-123.807
8,Kains Island,50.443,-128.03
9,Langara Point,54.255,-133.058
10,McInnes Island,52.263,-128.72
11,Nootka,49.593,-126.613
12,Pine Island,50.975,-127.727
13,Race Rocks,48.298,-123.533
